{
"type": "FeatureCollection",
"name": "Provincially_licensed_dairy_plants_",
"crs": { "type": "name", "properties": { "name": "urn:ogc:def:crs:OGC:1.3:CRS84" } },
"features": [
{ "type": "Feature", "properties": { "OBJECTID": 1, "Plant_Number": "005152", "Plant_Name": "Mildmay Creamery Limited", "Address": "73 ELORA STREET", "City": "Mildmay", "Province": "ON", "PostalCode": "N0G 2J0", "Telephone": "(519) 367-2678", "Latitude_DD": 44.041857, "Longitude_DD": -81.118504, "License_Status": "Active" }, "geometry": { "type": "Point", "coordinates": [ -81.1185079709756, 44.041865569280802 ] } },
{ "type": "Feature", "properties": { "OBJECTID": 2, "Plant_Number": "005153", "Plant_Name": "Chapman's Ice Cream", "Address": "200 CHAPMAN'S CRESCENT", "City": "Markdale", "Province": "ON", "PostalCode": "N0C 1H0", "Telephone": "(519) 986-3131", "Latitude_DD": 44.319346, "Longitude_DD": -80.656032, "License_Status": "Active" }, "geometry": { "type": "Point", "coordinates": [ -80.656035850648706, 44.319354639604903 ] } },
{ "type": "Feature", "properties": { "OBJECTID": 3, "Plant_Number": "005287", "Plant_Name": "Gelato Fresco Inc.", "Address": "60 TYCOS DRIVE", "City": "Toronto", "Province": "ON", "PostalCode": "M6B 1V9", "Telephone": "(416) 785-5415", "Latitude_DD": 43.705764, "Longitude_DD": -79.455024, "License_Status": "Active" }, "geometry": { "type": "Point", "coordinates": [ -79.455027411493504, 43.705772590959597 ] } },
{ "type": "Feature", "properties": { "OBJECTID": 4, "Plant_Number": "005303", "Plant_Name": "Agropur Cooperative (Woodstock)", "Address": "478 INDUSTRIAL AVENUE", "City": "Woodstock", "Province": "ON", "PostalCode": "N4S 7L1", "Telephone": "(519) 537-2361", "Latitude_DD": 43.151097, "Longitude_DD": -80.745533, "License_Status": "Active" }, "geometry": { "type": "Point", "coordinates": [ -80.7455367711176, 43.151105432539502 ] } },
{ "type": "Feature", "properties": { "OBJECTID": 5, "Plant_Number": "005307", "Plant_Name": "Springbank Cheese Company Ltd.", "Address": "201 WINNIETT STREET", "City": "Woodstock", "Province": "ON", "PostalCode": "N4S 6A1", "Telephone": "(519) 539-7411", "Latitude_DD": 43.136483, "Longitude_DD": -80.768377, "License_Status": "Active" }, "geometry": { "type": "Point", "coordinates": [ -80.768380777001894, 43.136491428869398 ] } },
{ "type": "Feature", "properties": { "OBJECTID": 6, "Plant_Number": "005321", "Plant_Name": "Kerry (Canada) Inc.", "Address": "615 JACK ROSS AVENUE", "City": "Woodstock", "Province": "ON", "PostalCode": "N4V 1B7", "Telephone": "(519) 537-3461", "Latitude_DD": 43.113355, "Longitude_DD": -80.719282, "License_Status": "Active" }, "geometry": { "type": "Point", "coordinates": [ -80.719285759495904, 43.1133634271334 ] } },
{ "type": "Feature", "properties": { "OBJECTID": 7, "Plant_Number": "005391", "Plant_Name": "Hewitt's Dairy Bar", "Address": "4210 HIGHWAY 6 N", "City": "Hagersville", "Province": "ON", "PostalCode": "N0A 1H0", "Telephone": "(905) 768-5266", "Latitude_DD": 42.979692, "Longitude_DD": -80.033831, "License_Status": "Active" }, "geometry": { "type": "Point", "coordinates": [ -80.033834531752902, 42.979700435722201 ] } },
{ "type": "Feature", "properties": { "OBJECTID": 8, "Plant_Number": "005667", "Plant_Name": "Black Diamond Cheese", "Address": "184 BLACK DIAMOND ROAD", "City": "Belleville", "Province": "ON", "PostalCode": "K8N 5A1", "Telephone": "(613) 969-0593", "Latitude_DD": 44.199647, "Longitude_DD": -77.380178, "License_Status": "Active" }, "geometry": { "type": "Point", "coordinates": [ -77.380180786574797, 44.1996557712244 ] } },
{ "type": "Feature", "properties": { "OBJECTID": 9, "Plant_Number": "005690", "Plant_Name": "Central Smith Ice Cream", "Address": "739 LINDSAY ROAD", "City": "Selwyn", "Province": "ON", "PostalCode": "K9J 0C5", "Telephone": "(705) 742-5867", "Latitude_DD": 44.343123, "Longitude_DD": -78.374142, "License_Status": "Active" }, "geometry": { "type": "Point", "coordinates": [ -78.374145120851097, 44.343131751851999 ] } },
{ "type": "Feature", "properties": { "OBJECTID": 10, "Plant_Number": "005769", "Plant_Name": "Sicilian Ice Cream Company Limited", "Address": "349 FOUR VALLEY DRIVE", "City": "Concord", "Province": "ON", "PostalCode": "L4K 5Z3", "Telephone": "(905) 761-7767", "Latitude_DD": 43.820019, "Longitude_DD": -79.536993, "License_Status": "Active" }, "geometry": { "type": "Point", "coordinates": [ -79.536996447799297, 43.820027607122697 ] } },
{ "type": "Feature", "properties": { "OBJECTID": 11, "Plant_Number": "005774", "Plant_Name": "Rex Pak Limited", "Address": "85 THORNMOUNT DRIVE", "City": "Toronto", "Province": "ON", "PostalCode": "M1B 5V3", "Telephone": "(416) 755-3324", "Latitude_DD": 43.806258, "Longitude_DD": -79.194557, "License_Status": "Active" }, "geometry": { "type": "Point", "coordinates": [ -79.1945603371705, 43.806266620647001 ] } },
{ "type": "Feature", "properties": { "OBJECTID": 12, "Plant_Number": "009110", "Plant_Name": "Max & Lion Production Inc.", "Address": "12 FISHERMAN DRIVE, UNITS 3 AND 4", "City": "Brampton", "Province": "ON", "PostalCode": "L7A 1B6", "Telephone": "(905) 840-6827", "Latitude_DD": 43.713848, "Longitude_DD": -79.801464, "License_Status": "Active" }, "geometry": { "type": "Point", "coordinates": [ -79.801467522607496, 43.7138565761582 ] } },
{ "type": "Feature", "properties": { "OBJECTID": 13, "Plant_Number": "009140", "Plant_Name": "Euro Balkan Specialty Foods", "Address": "34-1621 MCEWEN DRIVE", "City": "Whitby", "Province": "ON", "PostalCode": "L1N 9A5", "Telephone": "(905) 428-8192", "Latitude_DD": 43.856285, "Longitude_DD": -78.897247, "License_Status": "Active" }, "geometry": { "type": "Point", "coordinates": [ -78.897250246367904, 43.856293643095398 ] } },
{ "type": "Feature", "properties": { "OBJECTID": 14, "Plant_Number": "009200", "Plant_Name": "Elite Dairy and Bakery Limited", "Address": "123 MCCORMACK STREET", "City": "Toronto", "Province": "ON", "PostalCode": "M6N 1X8", "Telephone": "(416) 767-4574", "Latitude_DD": 43.675536, "Longitude_DD": -79.477735, "License_Status": "Active" }, "geometry": { "type": "Point", "coordinates": [ -79.477738416065407, 43.675544584602697 ] } },
{ "type": "Feature", "properties": { "OBJECTID": 15, "Plant_Number": "009210", "Plant_Name": "Arla Foods Inc. (Concord)", "Address": "675 RIVERMEDE ROAD", "City": "Concord", "Province": "ON", "PostalCode": "L4K 2G9", "Telephone": "(905) 669-9393", "Latitude_DD": 43.809002, "Longitude_DD": -79.49848, "License_Status": "Active" }, "geometry": { "type": "Point", "coordinates": [ -79.498483434523493, 43.8090106069995 ] } },
{ "type": "Feature", "properties": { "OBJECTID": 16, "Plant_Number": "009220", "Plant_Name": "Arla Foods Inc. (Atwood)", "Address": "7412 ROAD 164", "City": "Atwood", "Province": "ON", "PostalCode": "N0G 1B0", "Telephone": "(519) 356-2271", "Latitude_DD": 43.681751, "Longitude_DD": -81.008907, "License_Status": "Active" }, "geometry": { "type": "Point", "coordinates": [ -81.008910902441301, 43.681759512593104 ] } },
{ "type": "Feature", "properties": { "OBJECTID": 17, "Plant_Number": "009280", "Plant_Name": "Upper Canada Cheese Company", "Address": "4159 JORDAN ROAD", "City": "Jordan Station", "Province": "ON", "PostalCode": "L0R 1S0", "Telephone": "(905) 562-9730", "Latitude_DD": 43.163968, "Longitude_DD": -79.359822, "License_Status": "Active" }, "geometry": { "type": "Point", "coordinates": [ -79.359825334139103, 43.1639764996225 ] } },
{ "type": "Feature", "properties": { "OBJECTID": 18, "Plant_Number": "009360", "Plant_Name": "Mariposa Dairy Limited - St. David Street", "Address": "163 ST. DAVID STREET", "City": "Lindsay", "Province": "ON", "PostalCode": "K9V 4Z6", "Telephone": "(705) 324-9306", "Latitude_DD": 44.369266, "Longitude_DD": -78.731255, "License_Status": "Active" }, "geometry": { "type": "Point", "coordinates": [ -78.731258238456803, 44.369274740001103 ] } },
{ "type": "Feature", "properties": { "OBJECTID": 19, "Plant_Number": "009400", "Plant_Name": "Gay Lea Foods Co-Operative Limited (Madoc)", "Address": "11301 HIGHWAY 62 N", "City": "Madoc", "Province": "ON", "PostalCode": "K0K 2K0", "Telephone": "(613) 473-4269", "Latitude_DD": 44.392365, "Longitude_DD": -77.472517, "License_Status": "Active" }, "geometry": { "type": "Point", "coordinates": [ -77.472519832975493, 44.392373800831898 ] } },
{ "type": "Feature", "properties": { "OBJECTID": 20, "Plant_Number": "009410", "Plant_Name": "Glengarry Fine Cheese", "Address": "5926 COUNTY ROAD 34", "City": "Lancaster", "Province": "ON", "PostalCode": "K0C 1N0", "Telephone": "(613) 347-1141", "Latitude_DD": 45.158991, "Longitude_DD": -74.516105, "License_Status": "Active" }, "geometry": { "type": "Point", "coordinates": [ -74.516106924278503, 45.159000058175899 ] } },
{ "type": "Feature", "properties": { "OBJECTID": 21, "Plant_Number": "020501", "Plant_Name": "Alliston Creamery & Dairy Limited", "Address": "26 DOMINION STREET", "City": "Alliston", "Province": "ON", "PostalCode": "L9R 1L5", "Telephone": "(705) 435-6751", "Latitude_DD": 44.154794, "Longitude_DD": -79.8686, "License_Status": "Active" }, "geometry": { "type": "Point", "coordinates": [ -79.868603584059102, 44.154802649550597 ] } },
{ "type": "Feature", "properties": { "OBJECTID": 22, "Plant_Number": "089998", "Plant_Name": "Saputo Dairy Products Canada G.P. (Halton Hills)", "Address": "279 GUELPH STREET", "City": "Georgetown", "Province": "ON", "PostalCode": "L7G 4B3", "Telephone": "(905) 702-7200", "Latitude_DD": 43.65117, "Longitude_DD": -79.891463, "License_Status": "Active" }, "geometry": { "type": "Point", "coordinates": [ -79.891466545631204, 43.651178560955003 ] } },
{ "type": "Feature", "properties": { "OBJECTID": 23, "Plant_Number": "093103", "Plant_Name": "Agropur Canada (Ottawa)", "Address": "1001 DAIRY DRIVE", "City": "Ottawa", "Province": "ON", "PostalCode": "K4A 3N3", "Telephone": "(613) 834-5700", "Latitude_DD": 45.494574, "Longitude_DD": -75.475519, "License_Status": "Active" }, "geometry": { "type": "Point", "coordinates": [ -75.475521270727, 45.4945830766844 ] } },
{ "type": "Feature", "properties": { "OBJECTID": 24, "Plant_Number": "093104", "Plant_Name": "Agropur Division Natrel (Don Mills)", "Address": "1275 LAWRENCE AVENUE E", "City": "Don Mills", "Province": "ON", "PostalCode": "M3A 3P9", "Telephone": "(416) 442-2400", "Latitude_DD": 43.739577, "Longitude_DD": -79.326449, "License_Status": "Active" }, "geometry": { "type": "Point", "coordinates": [ -79.326452373441498, 43.739585602858398 ] } },
{ "type": "Feature", "properties": { "OBJECTID": 25, "Plant_Number": "096501", "Plant_Name": "The Bright Cheese And Butter Manufacturing", "Address": "816503 COUNTY ROAD 22", "City": "Bright", "Province": "ON", "PostalCode": "N0J 1B0", "Telephone": "(519) 454-4810", "Latitude_DD": 43.281051, "Longitude_DD": -80.661826, "License_Status": "Active" }, "geometry": { "type": "Point", "coordinates": [ -80.661829756375099, 43.281059459428 ] } },
{ "type": "Feature", "properties": { "OBJECTID": 26, "Plant_Number": "201002", "Plant_Name": "Chapman's Ice Cream", "Address": "100 CHAPMAN'S CRESCENT", "City": "Markdale", "Province": "ON", "PostalCode": "N0C 1H0", "Telephone": "(519) 986-3131", "Latitude_DD": 44.317497, "Longitude_DD": -80.657199, "License_Status": "Active" }, "geometry": { "type": "Point", "coordinates": [ -80.657202850843603, 44.317505639231797 ] } },
{ "type": "Feature", "properties": { "OBJECTID": 27, "Plant_Number": "201305", "Plant_Name": "Quality Cheese Inc. - Creditview Road", "Address": "210 CREDITVIEW ROAD", "City": "Vaughan", "Province": "ON", "PostalCode": "L4L 0B5", "Telephone": "(905) 265-9991", "Latitude_DD": 43.815134, "Longitude_DD": -79.547775, "License_Status": "Active" }, "geometry": { "type": "Point", "coordinates": [ -79.547778450804302, 43.815142605764997 ] } },
{ "type": "Feature", "properties": { "OBJECTID": 28, "Plant_Number": "201402", "Plant_Name": "Gay Lea Foods Co-operative Limited (Hamilton)", "Address": "20 MORLEY STREET", "City": "Hamilton", "Province": "ON", "PostalCode": "L8H 3R7", "Telephone": "(905) 544-6281", "Latitude_DD": 43.250383, "Longitude_DD": -79.784516, "License_Status": "Active" }, "geometry": { "type": "Point", "coordinates": [ -79.784519476332306, 43.250391495396997 ] } },
{ "type": "Feature", "properties": { "OBJECTID": 29, "Plant_Number": "201503", "Plant_Name": "Hans Dairy Inc.", "Address": "3400 AMERICAN DRIVE", "City": "Mississauga", "Province": "ON", "PostalCode": "L4V 1C1", "Telephone": "(905) 671-3200", "Latitude_DD": 43.69697, "Longitude_DD": -79.612252, "License_Status": "Active" }, "geometry": { "type": "Point", "coordinates": [ -79.612255460841894, 43.696978582084498 ] } },
{ "type": "Feature", "properties": { "OBJECTID": 30, "Plant_Number": "201506", "Plant_Name": "Upper Canada Creamery", "Address": "11575 WADDELL ROAD", "City": "Iroquois", "Province": "ON", "PostalCode": "K0E 1K0", "Telephone": "(613) 802-8026", "Latitude_DD": 44.925337, "Longitude_DD": -75.288975, "License_Status": "Active" }, "geometry": { "type": "Point", "coordinates": [ -75.288977161763498, 44.925345986447098 ] } },
{ "type": "Feature", "properties": { "OBJECTID": 31, "Plant_Number": "201508", "Plant_Name": "Mariposa Dairy Limited - St. George Street", "Address": "201 ST. GEORGE STREET", "City": "Lindsay", "Province": "ON", "PostalCode": "K9V 5Z9", "Telephone": "(705) 324-9306", "Latitude_DD": 44.374706, "Longitude_DD": -78.730646, "License_Status": "Active" }, "geometry": { "type": "Point", "coordinates": [ -78.730649238748597, 44.374714740969402 ] } },
{ "type": "Feature", "properties": { "OBJECTID": 32, "Plant_Number": "201509", "Plant_Name": "Stonetown Artisan Cheese Ltd.", "Address": "5021 PERTH LINE 8", "City": "St. Marys", "Province": "ON", "PostalCode": "N4X 1C4", "Telephone": "(519) 229-6856", "Latitude_DD": 43.279184, "Longitude_DD": -81.212519, "License_Status": "Active" }, "geometry": { "type": "Point", "coordinates": [ -81.212522929481807, 43.2791924325102 ] } },
{ "type": "Feature", "properties": { "OBJECTID": 33, "Plant_Number": "201512", "Plant_Name": "Organic Meadow Limited Partnership", "Address": "362 LAIRD ROAD", "City": "Guelph", "Province": "ON", "PostalCode": "N1G 3X7", "Telephone": "(519) 766-1119", "Latitude_DD": 43.492662, "Longitude_DD": -80.202133, "License_Status": "Active" }, "geometry": { "type": "Point", "coordinates": [ -80.202136630052607, 43.492670518493 ] } },
{ "type": "Feature", "properties": { "OBJECTID": 34, "Plant_Number": "201601", "Plant_Name": "Saputo Dairy Products Canada G.P. (Orangeville)", "Address": "425 RICHARDSON ROAD", "City": "Orangeville", "Province": "ON", "PostalCode": "L9W 4Z4", "Telephone": "(519) 941-9206", "Latitude_DD": 43.901073, "Longitude_DD": -80.113512, "License_Status": "Active" }, "geometry": { "type": "Point", "coordinates": [ -80.1135156388642, 43.901081593953599 ] } },
{ "type": "Feature", "properties": { "OBJECTID": 35, "Plant_Number": "201603", "Plant_Name": "Modhani Inc.", "Address": "21 REGAN ROAD UNIT F & G", "City": "Brampton", "Province": "ON", "PostalCode": "L7A 1C5", "Telephone": "(905) 495-3842", "Latitude_DD": 43.701957, "Longitude_DD": -79.801382, "License_Status": "Active" }, "geometry": { "type": "Point", "coordinates": [ -79.801385521517602, 43.701965574083097 ] } },
{ "type": "Feature", "properties": { "OBJECTID": 36, "Plant_Number": "201604", "Plant_Name": "Skjodt-Barrett Foods Inc.", "Address": "5 PRECIDIO COURT", "City": "Brampton", "Province": "ON", "PostalCode": "L6S 6B7", "Telephone": "(905) 671-2884", "Latitude_DD": 43.742137, "Longitude_DD": -79.715495, "License_Status": "Active" }, "geometry": { "type": "Point", "coordinates": [ -79.715498497761502, 43.742145585146602 ] } },
{ "type": "Feature", "properties": { "OBJECTID": 37, "Plant_Number": "201607", "Plant_Name": "Gay Lea Foods Co-operative Limited (Stirling)", "Address": "1 FRONT STREET", "City": "Stirling", "Province": "ON", "PostalCode": "K0K 3E0", "Telephone": "(613) 395-3350", "Latitude_DD": 44.295975, "Longitude_DD": -77.54734, "License_Status": "Active" }, "geometry": { "type": "Point", "coordinates": [ -77.547342849014797, 44.295983780725102 ] } },
{ "type": "Feature", "properties": { "OBJECTID": 38, "Plant_Number": "201701", "Plant_Name": "ADM Dairy Inc.", "Address": "15-5484 TOMKEN ROAD", "City": "Mississauga", "Province": "ON", "PostalCode": "L4W 2Z6", "Telephone": "(416) 500-9560", "Latitude_DD": 43.634953, "Longitude_DD": -79.645154, "License_Status": "Active" }, "geometry": { "type": "Point", "coordinates": [ -79.645157465819594, 43.634961569677003 ] } },
{ "type": "Feature", "properties": { "OBJECTID": 39, "Plant_Number": "201704", "Plant_Name": "CMS ONTARIO LIMITED", "Address": "134 NORFINCH DRIVE", "City": "Toronto", "Province": "ON", "PostalCode": "M3N 1X7", "Telephone": "(416) 736-4939", "Latitude_DD": 43.762832, "Longitude_DD": -79.531229, "License_Status": "Active" }, "geometry": { "type": "Point", "coordinates": [ -79.531232440864002, 43.762840597398601 ] } },
{ "type": "Feature", "properties": { "OBJECTID": 40, "Plant_Number": "201803", "Plant_Name": "St. Marys", "Address": "38 ENTERPRISE DRIVE", "City": "St. Marys", "Province": "ON", "PostalCode": "N4X 1B5", "Telephone": "(519) 349-2410", "Latitude_DD": 43.23940265, "Longitude_DD": -81.13720486, "License_Status": "Active" }, "geometry": { "type": "Point", "coordinates": [ -81.137208762206299, 43.2394110792007 ] } },
{ "type": "Feature", "properties": { "OBJECTID": 41, "Plant_Number": "201806", "Plant_Name": "The Minute Maid Company Canada Inc.", "Address": "781 LANDSDOWNE STREET W", "City": "Peterborough", "Province": "ON", "PostalCode": "K9J 1Z2", "Telephone": "(705) 750-3201", "Latitude_DD": 44.28345567, "Longitude_DD": -78.33587878, "License_Status": "Active" }, "geometry": { "type": "Point", "coordinates": [ -78.335881883225994, 44.283464413236899 ] } },
{ "type": "Feature", "properties": { "OBJECTID": 42, "Plant_Number": "201809", "Plant_Name": "Coppa di Gelato", "Address": "34 SWIFTSURE COURT", "City": "London", "Province": "ON", "PostalCode": "N5V 4L1", "Telephone": "(519) 933-0610", "Latitude_DD": 43.00189214, "Longitude_DD": -81.14529792, "License_Status": "Active" }, "geometry": { "type": "Point", "coordinates": [ -81.145301803332401, 43.001900527015202 ] } },
{ "type": "Feature", "properties": { "OBJECTID": 43, "Plant_Number": "201901", "Plant_Name": "Shaw's Ice Cream", "Address": "10 CLEARVIEW DRIVE", "City": "Tillsonburg", "Province": "ON", "PostalCode": "N4G 4G8", "Telephone": "(519) 631-2510", "Latitude_DD": 42.84443332, "Longitude_DD": -80.74846531, "License_Status": "Active" }, "geometry": { "type": "Point", "coordinates": [ -80.748469054938198, 42.844441698087202 ] } },
{ "type": "Feature", "properties": { "OBJECTID": 44, "Plant_Number": "201902", "Plant_Name": "Triple A Cheese Ltd. - 7210 Torbram Road", "Address": "7210 TORBRAM ROAD", "City": "Mississauga", "Province": "ON", "PostalCode": "L4T 3L7", "Telephone": "(905) 678-7053", "Latitude_DD": 43.698154, "Longitude_DD": -79.66, "License_Status": "Active" }, "geometry": { "type": "Point", "coordinates": [ -79.660003476159801, 43.698162580056803 ] } },
{ "type": "Feature", "properties": { "OBJECTID": 45, "Plant_Number": "201903", "Plant_Name": "Triple A Cheese Ltd. - 7130 Torbram Road", "Address": "7130 TORBRAM ROAD", "City": "Mississauga", "Province": "ON", "PostalCode": "L4T 4B5", "Telephone": "(905) 678-7053", "Latitude_DD": 43.69632019, "Longitude_DD": -79.65666674000001, "License_Status": "Active" }, "geometry": { "type": "Point", "coordinates": [ -79.656670214934806, 43.696328769891899 ] } },
{ "type": "Feature", "properties": { "OBJECTID": 46, "Plant_Number": "201904", "Plant_Name": "Dairy Fountain Inc.", "Address": "14-1080 FEWSTER DRIVE", "City": "Mississauga", "Province": "ON", "PostalCode": "L4W 2T2", "Telephone": "(647) 923-2479", "Latitude_DD": 43.6270891, "Longitude_DD": -79.62398007, "License_Status": "Active" }, "geometry": { "type": "Point", "coordinates": [ -79.623983528381302, 43.627097669286698 ] } },
{ "type": "Feature", "properties": { "OBJECTID": 47, "Plant_Number": "201905", "Plant_Name": "ptifoods", "Address": "6885 DAVAND DRIVE", "City": "Mississauga", "Province": "ON", "PostalCode": "L5T 1L5", "Telephone": "(905) 461-1585", "Latitude_DD": 43.67172069, "Longitude_DD": -79.67191929000001, "License_Status": "Active" }, "geometry": { "type": "Point", "coordinates": [ -79.671922767605295, 43.671729264869597 ] } },
{ "type": "Feature", "properties": { "OBJECTID": 48, "Plant_Number": "201908", "Plant_Name": "Lactalis Canada Ingleside", "Address": "70 DICKINSON DRIVE", "City": "Ingleside", "Province": "ON", "PostalCode": "K0C 1M0", "Telephone": "(613) 537-2226", "Latitude_DD": 45.00416852, "Longitude_DD": -74.99035369000001, "License_Status": "Active" }, "geometry": { "type": "Point", "coordinates": [ -74.990355759314198, 45.004177532293603 ] } },
{ "type": "Feature", "properties": { "OBJECTID": 49, "Plant_Number": "201910", "Plant_Name": "Great Lakes Goat Dairy Inc.", "Address": "569 BROADWAY STREET", "City": "Wyoming", "Province": "ON", "PostalCode": "N0N 1T0", "Telephone": "(519) 845-1613", "Latitude_DD": 42.946965, "Longitude_DD": -82.118358, "License_Status": "Active" }, "geometry": { "type": "Point", "coordinates": [ -82.118362182205701, 42.946973329751998 ] } },
{ "type": "Feature", "properties": { "OBJECTID": 50, "Plant_Number": "201911", "Plant_Name": "Canada Royal Milk ULC", "Address": "1680 VENTURE DRIVE", "City": "Kingston", "Province": "ON", "PostalCode": "K7P 0E9", "Telephone": "(613) 817-1228", "Latitude_DD": 44.27480126, "Longitude_DD": -76.55761918, "License_Status": "Active" }, "geometry": { "type": "Point", "coordinates": [ -76.557621705198002, 44.274810079874896 ] } },
{ "type": "Feature", "properties": { "OBJECTID": 51, "Plant_Number": "201912", "Plant_Name": "Ontario Impex of Canada", "Address": "190 STATESMAN DRIVE", "City": "Mississauga", "Province": "ON", "PostalCode": "L5S 1X7", "Telephone": "(905) 502-7277", "Latitude_DD": 43.651958, "Longitude_DD": -79.706478, "License_Status": "Active" }, "geometry": { "type": "Point", "coordinates": [ -79.7064814868518, 43.6519665697882 ] } },
{ "type": "Feature", "properties": { "OBJECTID": 52, "Plant_Number": "201913", "Plant_Name": "London Ice Cream Company", "Address": "3397 WHITE OAK ROAD, UNIT 1", "City": "London", "Province": "ON", "PostalCode": "N6E 3A1", "Telephone": "(519) 455-8810", "Latitude_DD": 42.930425, "Longitude_DD": -81.250205, "License_Status": "Active" }, "geometry": { "type": "Point", "coordinates": [ -81.250208909795603, 42.930433369328902 ] } },
{ "type": "Feature", "properties": { "OBJECTID": 53, "Plant_Number": "201915", "Plant_Name": "Thornloe Cheese Inc.", "Address": "999697 HIGHWAY 11 N", "City": "Thornloe", "Province": "ON", "PostalCode": "P0J 1S0", "Telephone": "(705) 667-1058", "Latitude_DD": 47.71245, "Longitude_DD": -79.84, "License_Status": "Active" }, "geometry": { "type": "Point", "coordinates": [ -79.840003940408195, 47.712459232837702 ] } },
{ "type": "Feature", "properties": { "OBJECTID": 54, "Plant_Number": "202001", "Plant_Name": "Tutto Cheese Company", "Address": "11 REGAN ROAD", "City": "Brampton", "Province": "ON", "PostalCode": "L7A 1B2", "Telephone": "(905) 846-8886", "Latitude_DD": 43.70090306, "Longitude_DD": -79.79965004, "License_Status": "Active" }, "geometry": { "type": "Point", "coordinates": [ -79.799653560872002, 43.700911633980297 ] } },
{ "type": "Feature", "properties": { "OBJECTID": 55, "Plant_Number": "202008", "Plant_Name": "Quality Cheese Inc. - Carlauren", "Address": "111 CARLAUREN", "City": "Vaughan", "Province": "ON", "PostalCode": "L4L 8C2", "Telephone": "(905) 265-9991", "Latitude_DD": 43.79870453, "Longitude_DD": -79.54548856, "License_Status": "Active" }, "geometry": { "type": "Point", "coordinates": [ -79.545492008608704, 43.798713133002401 ] } },
{ "type": "Feature", "properties": { "OBJECTID": 56, "Plant_Number": "202010", "Plant_Name": "Phelishia Co. Ltd", "Address": "9 - 219 CONNIE CRES", "City": "Concord", "Province": "ON", "PostalCode": "L4K 1L4", "Telephone": "(416) 464-0816", "Latitude_DD": 43.81925423, "Longitude_DD": -79.48538462, "License_Status": "Active" }, "geometry": { "type": "Point", "coordinates": [ -79.485388051256393, 43.819262839402299 ] } },
{ "type": "Feature", "properties": { "OBJECTID": 57, "Plant_Number": "202101", "Plant_Name": "St. Clair Ice Cream Limited", "Address": "149 ROWNTREE DAIRY RD.", "City": "Woodbridge", "Province": "ON", "PostalCode": "L4L 6E1", "Telephone": "(416) 694-5811", "Latitude_DD": 43.78547725, "Longitude_DD": -79.55249012, "License_Status": "Active" }, "geometry": { "type": "Point", "coordinates": [ -79.552493569663298, 43.7854858503636 ] } },
{ "type": "Feature", "properties": { "OBJECTID": 58, "Plant_Number": "249601", "Plant_Name": "Empire Cheese Co-Operative", "Address": "1120 COUNTY ROAD 8", "City": "Campbellford", "Province": "ON", "PostalCode": "K0L 1L0", "Telephone": "(705) 653-3187", "Latitude_DD": 44.268497, "Longitude_DD": -77.764656, "License_Status": "Active" }, "geometry": { "type": "Point", "coordinates": [ -77.764658917126098, 44.268505766303498 ] } },
{ "type": "Feature", "properties": { "OBJECTID": 59, "Plant_Number": "300001", "Plant_Name": "Unilever Canada Inc.", "Address": "175 UNION STREET", "City": "Simcoe", "Province": "ON", "PostalCode": "N3Y 2B1", "Telephone": "(289) 282-1300", "Latitude_DD": 42.839392, "Longitude_DD": -80.310848, "License_Status": "Active" }, "geometry": { "type": "Point", "coordinates": [ -80.310851606966196, 42.839400397789902 ] } },
{ "type": "Feature", "properties": { "OBJECTID": 60, "Plant_Number": "317401", "Plant_Name": "Grande Cheese Company Limited (Milvan)", "Address": "175 MILVAN DRIVE", "City": "North York", "Province": "ON", "PostalCode": "M9L 1Z8", "Telephone": "(416) 740-8883", "Latitude_DD": 43.759125, "Longitude_DD": -79.565204, "License_Status": "Active" }, "geometry": { "type": "Point", "coordinates": [ -79.565207451371194, 43.759133595162098 ] } },
{ "type": "Feature", "properties": { "OBJECTID": 61, "Plant_Number": "317402", "Plant_Name": "Grande Cheese Company Limited (Woodbridge)", "Address": "468 JEVLAN DRIVE", "City": "Woodbridge", "Province": "ON", "PostalCode": "L4L 8L4", "Telephone": "(905) 856-6880", "Latitude_DD": 43.805756, "Longitude_DD": -79.550136, "License_Status": "Active" }, "geometry": { "type": "Point", "coordinates": [ -79.550139450720707, 43.805764604016701 ] } },
{ "type": "Feature", "properties": { "OBJECTID": 62, "Plant_Number": "338701", "Plant_Name": "Maple Dale Cheese", "Address": "2864 HIGHWAY 37 N", "City": "Plainfield", "Province": "ON", "PostalCode": "K0K 2V0", "Telephone": "(613) 477-2454", "Latitude_DD": 44.308059, "Longitude_DD": -77.345368, "License_Status": "Active" }, "geometry": { "type": "Point", "coordinates": [ -77.345370784459803, 44.308067791716802 ] } },
{ "type": "Feature", "properties": { "OBJECTID": 63, "Plant_Number": "344101", "Plant_Name": "Hewitt's Dairy Limited", "Address": "128 KING STREET E", "City": "Hagersville", "Province": "ON", "PostalCode": "N0A 1H0", "Telephone": "(905) 768-3524", "Latitude_DD": 42.957577, "Longitude_DD": -80.040772, "License_Status": "Active" }, "geometry": { "type": "Point", "coordinates": [ -80.040775532037102, 42.957585431458703 ] } },
{ "type": "Feature", "properties": { "OBJECTID": 64, "Plant_Number": "391301", "Plant_Name": "International Cheese Company Limited", "Address": "67 MULOCK AVENUE", "City": "Toronto", "Province": "ON", "PostalCode": "M6N 3C5", "Telephone": "(416) 769-3547", "Latitude_DD": 43.670019, "Longitude_DD": -79.464894, "License_Status": "Active" }, "geometry": { "type": "Point", "coordinates": [ -79.464897411483804, 43.670027584232201 ] } },
{ "type": "Feature", "properties": { "OBJECTID": 65, "Plant_Number": "405701", "Plant_Name": "Kawartha Dairy Limited", "Address": "89 PRINCE STREET WEST", "City": "Bobcaygeon", "Province": "ON", "PostalCode": "K0M 1A0", "Telephone": "(705) 738-5123", "Latitude_DD": 44.542006, "Longitude_DD": -78.550119, "License_Status": "Active" }, "geometry": { "type": "Point", "coordinates": [ -78.5501221954882, 44.542014778153401 ] } },
{ "type": "Feature", "properties": { "OBJECTID": 66, "Plant_Number": "467701", "Plant_Name": "Galati Cheese Company Limited", "Address": "931 TECUMSEH ROAD W", "City": "Windsor", "Province": "ON", "PostalCode": "N8X 2A9", "Telephone": "(519) 973-7510", "Latitude_DD": 42.29521, "Longitude_DD": -83.03783, "License_Status": "Active" }, "geometry": { "type": "Point", "coordinates": [ -83.037834406981204, 42.295218169030399 ] } },
{ "type": "Feature", "properties": { "OBJECTID": 67, "Plant_Number": "477401", "Plant_Name": "M.C. Dairy Company (1991) Limited", "Address": "106 N QUEEN STREET", "City": "Etobicoke", "Province": "ON", "PostalCode": "M8Z 2E2", "Telephone": "(416) 231-1491", "Latitude_DD": 43.621456, "Longitude_DD": -79.547548, "License_Status": "Active" }, "geometry": { "type": "Point", "coordinates": [ -79.547551433541003, 43.621464571862397 ] } },
{ "type": "Feature", "properties": { "OBJECTID": 68, "Plant_Number": "552501", "Plant_Name": "Gay Lea Foods Co-Operative Limited (Longlife)", "Address": "180 ORMONT DRIVE", "City": "Weston", "Province": "ON", "PostalCode": "M9L 1N7", "Telephone": "(647) 277-4320", "Latitude_DD": 43.766811, "Longitude_DD": -79.539819, "License_Status": "Active" }, "geometry": { "type": "Point", "coordinates": [ -79.5398224439584, 43.766819597693001 ] } },
{ "type": "Feature", "properties": { "OBJECTID": 69, "Plant_Number": "575401", "Plant_Name": "Oak Grove Cheese Factory Limited", "Address": "29 BLEAMS ROAD E", "City": "New Hamburg", "Province": "ON", "PostalCode": "N3A 1G6", "Telephone": "(519) 662-1212", "Latitude_DD": 43.37374, "Longitude_DD": -80.703396, "License_Status": "Active" }, "geometry": { "type": "Point", "coordinates": [ -80.703399777824103, 43.373748473707899 ] } },
{ "type": "Feature", "properties": { "OBJECTID": 70, "Plant_Number": "600901", "Plant_Name": "Lactalis Canada Inc. (Winchester)", "Address": "490 GORDON STREET", "City": "Winchester", "Province": "ON", "PostalCode": "K0C 2K0", "Telephone": "(613) 774-2310", "Latitude_DD": 45.093986, "Longitude_DD": -75.355637, "License_Status": "Active" }, "geometry": { "type": "Point", "coordinates": [ -75.355639197585802, 45.093995012912501 ] } },
{ "type": "Feature", "properties": { "OBJECTID": 71, "Plant_Number": "600904", "Plant_Name": "Lactalis Canada Inc. (Niagara)", "Address": "461 STEWART ROAD", "City": "Niagara-On-The-Lake", "Province": "ON", "PostalCode": "L0S 1J0", "Telephone": "(905) 641-8151", "Latitude_DD": 43.190558, "Longitude_DD": -79.189471, "License_Status": "Active" }, "geometry": { "type": "Point", "coordinates": [ -79.189474282265294, 43.190566512125301 ] } },
{ "type": "Feature", "properties": { "OBJECTID": 72, "Plant_Number": "600909", "Plant_Name": "Lactalis Canada Inc. (Brampton)", "Address": "16 SHAFTSBURY LANE", "City": "Brampton", "Province": "ON", "PostalCode": "L6T 4G7", "Telephone": "(905) 494-6124", "Latitude_DD": 43.735686, "Longitude_DD": -79.693092, "License_Status": "Active" }, "geometry": { "type": "Point", "coordinates": [ -79.693095490047895, 43.735694585071101 ] } },
{ "type": "Feature", "properties": { "OBJECTID": 73, "Plant_Number": "600914", "Plant_Name": "Lactalis Canada Inc. (Mitchell)", "Address": "100 ST. GEORGE STREET", "City": "Mitchell", "Province": "ON", "PostalCode": "N0K 1N0", "Telephone": "(519) 348-8414", "Latitude_DD": 43.467698, "Longitude_DD": -81.198995, "License_Status": "Active" }, "geometry": { "type": "Point", "coordinates": [ -81.198998942526998, 43.4677064660914 ] } },
{ "type": "Feature", "properties": { "OBJECTID": 74, "Plant_Number": "600918", "Plant_Name": "Lactalis Canada Inc. (Etobicoke)", "Address": "25 RAKELY COURT", "City": "Etobicoke", "Province": "ON", "PostalCode": "M9C 5G2", "Telephone": "(416) 622-2811", "Latitude_DD": 43.648355, "Longitude_DD": -79.604141, "License_Status": "Active" }, "geometry": { "type": "Point", "coordinates": [ -79.604144453945807, 43.648363573943499 ] } },
{ "type": "Feature", "properties": { "OBJECTID": 75, "Plant_Number": "601602", "Plant_Name": "Quality Cheese Inc. - Orangeville", "Address": "40 CENTENNIAL ROAD", "City": "Orangeville", "Province": "ON", "PostalCode": "L9W 3T3", "Telephone": "(905) 265-9991", "Latitude_DD": 43.909301, "Longitude_DD": -80.10928, "License_Status": "Active" }, "geometry": { "type": "Point", "coordinates": [ -80.109283638270099, 43.909309595583103 ] } },
{ "type": "Feature", "properties": { "OBJECTID": 76, "Plant_Number": "624601", "Plant_Name": "Pinehedge Farms Inc.", "Address": "1575 CONCESSION 7 ROAD", "City": "St. Eugene", "Province": "ON", "PostalCode": "K0B 1P0", "Telephone": "(613) 674-5739", "Latitude_DD": 45.471541, "Longitude_DD": -74.502852, "License_Status": "Active" }, "geometry": { "type": "Point", "coordinates": [ -74.502853944943695, 45.471550112565403 ] } },
{ "type": "Feature", "properties": { "OBJECTID": 77, "Plant_Number": "632701", "Plant_Name": "Portuguese Cheese Company Limited", "Address": "2 BUCKINGHAM STREET", "City": "Toronto", "Province": "ON", "PostalCode": "M8Y 2W1", "Telephone": "(416) 259-4349", "Latitude_DD": 43.618598, "Longitude_DD": -79.496365, "License_Status": "Active" }, "geometry": { "type": "Point", "coordinates": [ -79.496368416981994, 43.6186065737419 ] } },
{ "type": "Feature", "properties": { "OBJECTID": 78, "Plant_Number": "661101", "Plant_Name": "Quality Cheese Inc. - Jevlan Drive", "Address": "111 JEVLAN DRIVE", "City": "Vaughan", "Province": "ON", "PostalCode": "L4L 8C2", "Telephone": "(905) 265-9991", "Latitude_DD": 43.79647, "Longitude_DD": -79.546349, "License_Status": "Active" }, "geometry": { "type": "Point", "coordinates": [ -79.546352448683905, 43.796478602571803 ] } },
{ "type": "Feature", "properties": { "OBJECTID": 79, "Plant_Number": "673401", "Plant_Name": "Reid's Dairy Company Limited", "Address": "222 BELL BLVD.", "City": "Belleville", "Province": "ON", "PostalCode": "K8N 5B6", "Telephone": "(613) 967-1970", "Latitude_DD": 44.186053, "Longitude_DD": -77.408686, "License_Status": "Active" }, "geometry": { "type": "Point", "coordinates": [ -77.408688794675498, 44.186061767594502 ] } },
{ "type": "Feature", "properties": { "OBJECTID": 80, "Plant_Number": "688201", "Plant_Name": "Roman Cheese Products Limited", "Address": "4916 MONTROSE ROAD", "City": "Niagara Falls", "Province": "ON", "PostalCode": "L2H 1K5", "Telephone": "(905) 356-2639", "Latitude_DD": 43.102287, "Longitude_DD": -79.123257, "License_Status": "Active" }, "geometry": { "type": "Point", "coordinates": [ -79.123260253743595, 43.102295499379203 ] } },
{ "type": "Feature", "properties": { "OBJECTID": 81, "Plant_Number": "712901", "Plant_Name": "Saugeen Country Dairy Ltd.", "Address": "423809 CONCESSION 6", "City": "Markdale", "Province": "ON", "PostalCode": "N0C 1H0", "Telephone": "(519) 369-5836", "Latitude_DD": 44.246898, "Longitude_DD": -80.744499, "License_Status": "Active" }, "geometry": { "type": "Point", "coordinates": [ -80.744502871880599, 44.2469066228728 ] } },
{ "type": "Feature", "properties": { "OBJECTID": 82, "Plant_Number": "718803", "Plant_Name": "Nestle Ice Cream", "Address": "980 WILTON GROVE ROAD", "City": "London", "Province": "ON", "PostalCode": "N6N 1C7", "Telephone": "(519) 680-4000", "Latitude_DD": 42.929374, "Longitude_DD": -81.200648, "License_Status": "Active" }, "geometry": { "type": "Point", "coordinates": [ -81.200651894188496, 42.929382371533798 ] } },
{ "type": "Feature", "properties": { "OBJECTID": 83, "Plant_Number": "727705", "Plant_Name": "Saputo Dairy Products Canada G.P. (Tavistock)", "Address": "284 HOPE STREET W", "City": "Tavistock", "Province": "ON", "PostalCode": "N0B 2R0", "Telephone": "(519) 655-2337", "Latitude_DD": 43.319235, "Longitude_DD": -80.846133, "License_Status": "Active" }, "geometry": { "type": "Point", "coordinates": [ -80.846136817888507, 43.319243457280997 ] } },
{ "type": "Feature", "properties": { "OBJECTID": 84, "Plant_Number": "729301", "Plant_Name": "Skotidakis Goat Farm", "Address": "185 REGIONAL ROAD 10", "City": "St. Eugene", "Province": "ON", "PostalCode": "K0B 1P0", "Telephone": "(613) 674-3183", "Latitude_DD": 45.49173, "Longitude_DD": -74.419349, "License_Status": "Active" }, "geometry": { "type": "Point", "coordinates": [ -74.419350918700701, 45.491739119368297 ] } },
{ "type": "Feature", "properties": { "OBJECTID": 85, "Plant_Number": "732301", "Plant_Name": "Fromagerie Cooperative St-Albert Inc", "Address": "150 ST. PAUL STREET", "City": "St. Albert", "Province": "ON", "PostalCode": "K0A 3C0", "Telephone": "(613) 987-2872", "Latitude_DD": 45.253033, "Longitude_DD": -75.121471, "License_Status": "Active" }, "geometry": { "type": "Point", "coordinates": [ -75.121473133028303, 45.253042049956399 ] } },
{ "type": "Feature", "properties": { "OBJECTID": 86, "Plant_Number": "777301", "Plant_Name": "Silani Sweet Cheese Limited", "Address": "4205 2ND LINE", "City": "Bradford West Gwillimbury", "Province": "ON", "PostalCode": "L0G 1T0", "Telephone": "(905) 939-2561", "Latitude_DD": 44.029776, "Longitude_DD": -79.652223, "License_Status": "Active" }, "geometry": { "type": "Point", "coordinates": [ -79.652226503483206, 44.029784638204298 ] } },
{ "type": "Feature", "properties": { "OBJECTID": 87, "Plant_Number": "807901", "Plant_Name": "Gay Lea Foods Co-Operative Limited (Weston)", "Address": "100 CLAYSON ROAD", "City": "Weston", "Province": "ON", "PostalCode": "M9M 2G7", "Telephone": "(416) 401-3257", "Latitude_DD": 43.723092, "Longitude_DD": -79.526042, "License_Status": "Active" }, "geometry": { "type": "Point", "coordinates": [ -79.526045435679293, 43.723100590686201 ] } },
{ "type": "Feature", "properties": { "OBJECTID": 88, "Plant_Number": "807903", "Plant_Name": "Gay Lea Foods Co-Operative Limited (Guelph)", "Address": "21 SPEEDVALE AVENUE W", "City": "Guelph", "Province": "ON", "PostalCode": "N1H 1J5", "Telephone": "(519) 883-6324", "Latitude_DD": 43.558076, "Longitude_DD": -80.270552, "License_Status": "Active" }, "geometry": { "type": "Point", "coordinates": [ -80.270555657603296, 43.558084526700497 ] } },
{ "type": "Feature", "properties": { "OBJECTID": 89, "Plant_Number": "807904", "Plant_Name": "Teeswater Creamery", "Address": "21 CLINTON STREET N", "City": "Teeswater", "Province": "ON", "PostalCode": "N0G 2S0", "Telephone": "(519) 392-6864", "Latitude_DD": 44.001822, "Longitude_DD": -81.285006, "License_Status": "Active" }, "geometry": { "type": "Point", "coordinates": [ -81.285010019812603, 44.001830554141499 ] } },
{ "type": "Feature", "properties": { "OBJECTID": 90, "Plant_Number": "860501", "Plant_Name": "Wilton Cheese Factory", "Address": "287 SIMMONS ROAD", "City": "Odessa", "Province": "ON", "PostalCode": "K0H 2H0", "Telephone": "(613) 386-7314", "Latitude_DD": 44.325658, "Longitude_DD": -76.722515, "License_Status": "Active" }, "geometry": { "type": "Point", "coordinates": [ -76.722517583186203, 44.325666821769701 ] } },
{ "type": "Feature", "properties": { "OBJECTID": 91, "Plant_Number": "005295", "Plant_Name": "The Gelato Factory Inc.", "Address": "21-910 ROWNTREE DAIRY ROAD", "City": "Woodbridge", "Province": "ON", "PostalCode": "L4L 5W6", "Telephone": "(905) 850-3011", "Latitude_DD": 43.78169, "Longitude_DD": -79.57141, "License_Status": "Active" }, "geometry": { "type": "Point", "coordinates": [ -79.571413455361295, 43.781698598816398 ] } },
{ "type": "Feature", "properties": { "OBJECTID": 92, "Plant_Number": "005306", "Plant_Name": "Jensen Cheese", "Address": "37 EVERGREEN HILL ROAD", "City": "Simcoe", "Province": "ON", "PostalCode": "N3Y 1B7", "Telephone": "(519) 426-4523", "Latitude_DD": 42.82557365, "Longitude_DD": -80.30379588, "License_Status": "Active" }, "geometry": { "type": "Point", "coordinates": [ -80.303799483554798, 42.825582045652702 ] } },
{ "type": "Feature", "properties": { "OBJECTID": 93, "Plant_Number": "007120", "Plant_Name": "Gelda Foods", "Address": "6320 NORTHWEST DRIVE", "City": "Mississauga", "Province": "ON", "PostalCode": "L4V 1J7", "Telephone": "(905) 673-9320", "Latitude_DD": 43.699652, "Longitude_DD": -79.614532, "License_Status": "Active" }, "geometry": { "type": "Point", "coordinates": [ -79.614535461806696, 43.6996605824475 ] } },
{ "type": "Feature", "properties": { "OBJECTID": 94, "Plant_Number": "009030", "Plant_Name": "Master Soft & Delight Dairy Product Inc.", "Address": "58 RALEIGH AVENUE", "City": "Scarborough", "Province": "ON", "PostalCode": "M1K 1A2", "Telephone": "(416) 266-9699", "Latitude_DD": 43.704515, "Longitude_DD": -79.2649, "License_Status": "Active" }, "geometry": { "type": "Point", "coordinates": [ -79.264903350698702, 43.7045235995582 ] } },
{ "type": "Feature", "properties": { "OBJECTID": 95, "Plant_Number": "009260", "Plant_Name": "River's Edge Goat Dairy", "Address": "8102 WELLINGTON ROAD 109", "City": "Arthur", "Province": "ON", "PostalCode": "N0G 1A0", "Telephone": "(519) 848-2203", "Latitude_DD": 43.833881, "Longitude_DD": -80.519046, "License_Status": "Active" }, "geometry": { "type": "Point", "coordinates": [ -80.519049761529402, 43.833889562798298 ] } },
{ "type": "Feature", "properties": { "OBJECTID": 96, "Plant_Number": "200903", "Plant_Name": "Avondale Dairy Bar", "Address": "461 STEWART ROAD", "City": "Niagara-On-The-Lake", "Province": "ON", "PostalCode": "L0S 1J0", "Telephone": "(905) 687-7403", "Latitude_DD": 43.190542, "Longitude_DD": -79.189546, "License_Status": "Active" }, "geometry": { "type": "Point", "coordinates": [ -79.1895492822878, 43.190550512119103 ] } },
{ "type": "Feature", "properties": { "OBJECTID": 97, "Plant_Number": "201001", "Plant_Name": "Gordon's Goat Dairy", "Address": "43253 C LINE ROAD", "City": "Wroxeter", "Province": "ON", "PostalCode": "N0G 2X0", "Telephone": "(519) 335-4321", "Latitude_DD": 43.827137, "Longitude_DD": -81.140144, "License_Status": "Active" }, "geometry": { "type": "Point", "coordinates": [ -81.140147957476202, 43.827145531285701 ] } },
{ "type": "Feature", "properties": { "OBJECTID": 98, "Plant_Number": "201005", "Plant_Name": "Monforte Dairy Company Ltd.", "Address": "49 GRIFFITH ROAD E", "City": "Stratford", "Province": "ON", "PostalCode": "N5A 6S4", "Telephone": "(519) 814-7920", "Latitude_DD": 43.351256, "Longitude_DD": -80.983528, "License_Status": "Active" }, "geometry": { "type": "Point", "coordinates": [ -80.983531864052694, 43.351264456251897 ] } },
{ "type": "Feature", "properties": { "OBJECTID": 99, "Plant_Number": "201010", "Plant_Name": "Cross Wind Farms", "Address": "1616 VILLIERS LINE", "City": "Keene", "Province": "ON", "PostalCode": "K0L 2G0", "Telephone": "(705) 768-6049", "Latitude_DD": 44.29056, "Longitude_DD": -78.116544, "License_Status": "Active" }, "geometry": { "type": "Point", "coordinates": [ -78.116547032957101, 44.290568754394897 ] } },
{ "type": "Feature", "properties": { "OBJECTID": 100, "Plant_Number": "201101", "Plant_Name": "White Rose - Say \"Cheese\"", "Address": "34026 NEIL ROAD", "City": "Lucan", "Province": "ON", "PostalCode": "N0M 2J0", "Telephone": "(519) 227-1776", "Latitude_DD": 43.181376, "Longitude_DD": -81.472856, "License_Status": "Active" }, "geometry": { "type": "Point", "coordinates": [ -81.472860002197194, 43.181384402665401 ] } },
{ "type": "Feature", "properties": { "OBJECTID": 101, "Plant_Number": "201104", "Plant_Name": "Limestone Organic Creamery", "Address": "3113 SYDENHAM RD", "City": "Elginburg", "Province": "ON", "PostalCode": "K0H 1M0", "Telephone": "(613) 545-9214", "Latitude_DD": 44.345872, "Longitude_DD": -76.563572, "License_Status": "Active" }, "geometry": { "type": "Point", "coordinates": [ -76.563574533000903, 44.345880832096498 ] } },
{ "type": "Feature", "properties": { "OBJECTID": 102, "Plant_Number": "201106", "Plant_Name": "Blyth Farm Cheese Inc.", "Address": "82521 ALLBORO LINE", "City": "Blyth", "Province": "ON", "PostalCode": "N0M 1H0", "Telephone": "(226) 523-5884", "Latitude_DD": 43.710355, "Longitude_DD": -81.443707, "License_Status": "Active" }, "geometry": { "type": "Point", "coordinates": [ -81.443711042183907, 43.710363496106801 ] } },
{ "type": "Feature", "properties": { "OBJECTID": 103, "Plant_Number": "201107", "Plant_Name": "Gunn's Hill Artisan Cheese Ltd.", "Address": "445172 GUNN'S HILL ROAD", "City": "Woodstock", "Province": "ON", "PostalCode": "N4S 7V8", "Telephone": "(519) 424-4024", "Latitude_DD": 43.060874, "Longitude_DD": -80.691884, "License_Status": "Active" }, "geometry": { "type": "Point", "coordinates": [ -80.691887746219507, 43.060882419164798 ] } },
{ "type": "Feature", "properties": { "OBJECTID": 104, "Plant_Number": "201201", "Plant_Name": "Bushgarden Farmstead Cheese", "Address": "590 BUSH ROAD", "City": "Elgin", "Province": "ON", "PostalCode": "K0G 1E0", "Telephone": "(613) 840-5479", "Latitude_DD": 44.576028, "Longitude_DD": -76.214795, "License_Status": "Active" }, "geometry": { "type": "Point", "coordinates": [ -76.214797437921106, 44.576036887139203 ] } },
{ "type": "Feature", "properties": { "OBJECTID": 105, "Plant_Number": "201204", "Plant_Name": "Sheldon Creek Dairy", "Address": "4316 5TH CONCESSION", "City": "Loretto", "Province": "ON", "PostalCode": "L0G 1L0", "Telephone": "(705) 434-0404", "Latitude_DD": 44.10988, "Longitude_DD": -79.924133, "License_Status": "Active" }, "geometry": { "type": "Point", "coordinates": [ -79.924136597659995, 44.109888639145801 ] } },
{ "type": "Feature", "properties": { "OBJECTID": 106, "Plant_Number": "201205", "Plant_Name": "Mountainoak Cheese", "Address": "3165 HURON RD", "City": "New Hamburg", "Province": "ON", "PostalCode": "N3A 3C3", "Telephone": "(519) 662-4967", "Latitude_DD": 43.355481, "Longitude_DD": -80.643647, "License_Status": "Active" }, "geometry": { "type": "Point", "coordinates": [ -80.643650757329397, 43.355489473372799 ] } },
{ "type": "Feature", "properties": { "OBJECTID": 107, "Plant_Number": "201206", "Plant_Name": "Miller's Dairy Ltd.", "Address": "7280 COUNTY ROAD 9", "City": "Creemore", "Province": "ON", "PostalCode": "L0M 1G0", "Telephone": "(705) 466-2525", "Latitude_DD": 44.336657, "Longitude_DD": -80.090883, "License_Status": "Active" }, "geometry": { "type": "Point", "coordinates": [ -80.090886672005496, 44.336665670137499 ] } },
{ "type": "Feature", "properties": { "OBJECTID": 108, "Plant_Number": "201304", "Plant_Name": "Christopher's Gelato", "Address": "606 COLBY DRIVE", "City": "Waterloo", "Province": "ON", "PostalCode": "N2V 1A2", "Telephone": "(519) 502-0984", "Latitude_DD": 43.504722, "Longitude_DD": -80.541422, "License_Status": "Active" }, "geometry": { "type": "Point", "coordinates": [ -80.541425738519195, 43.504730504419697 ] } },
{ "type": "Feature", "properties": { "OBJECTID": 109, "Plant_Number": "201403", "Plant_Name": "Fifth Town Artisan Cheese Co.", "Address": "4309 COUNTY ROAD 8", "City": "Picton", "Province": "ON", "PostalCode": "K0K 2T0", "Telephone": "(613) 476-5755", "Latitude_DD": 44.053357, "Longitude_DD": -76.904652, "License_Status": "Active" }, "geometry": { "type": "Point", "coordinates": [ -76.904654619958393, 44.0533657660825 ] } },
{ "type": "Feature", "properties": { "OBJECTID": 110, "Plant_Number": "201404", "Plant_Name": "Little Brown Cow Dairy", "Address": "23 SOUR SPRINGS ROAD", "City": "Mount Pleasant", "Province": "ON", "PostalCode": "N0E 1K0", "Telephone": "(226) 388-4284", "Latitude_DD": 43.07733, "Longitude_DD": -80.256546, "License_Status": "Active" }, "geometry": { "type": "Point", "coordinates": [ -80.256549610521503, 43.077338442668498 ] } },
{ "type": "Feature", "properties": { "OBJECTID": 111, "Plant_Number": "201501", "Plant_Name": "Italian Ice Cream", "Address": "5458 VICTORIA AVENUE", "City": "Niagara Falls", "Province": "ON", "PostalCode": "L2G 3L2", "Telephone": "(905) 356-3866", "Latitude_DD": 43.095534, "Longitude_DD": -79.072428, "License_Status": "Active" }, "geometry": { "type": "Point", "coordinates": [ -79.072431237015294, 43.0955425004707 ] } },
{ "type": "Feature", "properties": { "OBJECTID": 112, "Plant_Number": "201502", "Plant_Name": "Zara Baladi Inc.", "Address": "9-2394 HAINES ROAD", "City": "Mississauga", "Province": "ON", "PostalCode": "L4Y 1Y6", "Telephone": "(905) 272-8662", "Latitude_DD": 43.593012, "Longitude_DD": -79.591038, "License_Status": "Active" }, "geometry": { "type": "Point", "coordinates": [ -79.591041444881498, 43.5930205648407 ] } },
{ "type": "Feature", "properties": { "OBJECTID": 113, "Plant_Number": "201504", "Plant_Name": "Belly Ice Cream Company Inc.", "Address": "90 WEST ROAD", "City": "Huntsville", "Province": "ON", "PostalCode": "P1H 1M1", "Telephone": "(705) 571-5258", "Latitude_DD": 45.332981, "Longitude_DD": -79.225141, "License_Status": "Active" }, "geometry": { "type": "Point", "coordinates": [ -79.225144488077305, 45.332989880655397 ] } },
{ "type": "Feature", "properties": { "OBJECTID": 114, "Plant_Number": "201505", "Plant_Name": "Fromagerie Kapuskoise Inc.", "Address": "376 RUE DE GOVERNMENT EST", "City": "Kapuskasing", "Province": "ON", "PostalCode": "P5N 2X7", "Telephone": "(705) 371-2177", "Latitude_DD": 49.399531, "Longitude_DD": -82.374191, "License_Status": "Active" }, "geometry": { "type": "Point", "coordinates": [ -82.374195996618994, 49.399540342969203 ] } },
{ "type": "Feature", "properties": { "OBJECTID": 115, "Plant_Number": "201507", "Plant_Name": "Slate River Dairy", "Address": "8 HWY 608", "City": "Neebing", "Province": "ON", "PostalCode": "P7L 0C6", "Telephone": "(807) 577-6455", "Latitude_DD": 48.256251, "Longitude_DD": -89.484107, "License_Status": "Active" }, "geometry": { "type": "Point", "coordinates": [ -89.484114112485202, 48.256259722795498 ] } },
{ "type": "Feature", "properties": { "OBJECTID": 116, "Plant_Number": "201510", "Plant_Name": "Thunder Oak Cheese", "Address": "611 BOUNDARY DRIVE", "City": "Neebing", "Province": "ON", "PostalCode": "P7L 0C2", "Telephone": "(807) 628-0175", "Latitude_DD": 48.289173, "Longitude_DD": -89.487361, "License_Status": "Active" }, "geometry": { "type": "Point", "coordinates": [ -89.487368118667504, 48.289181727089797 ] } },
{ "type": "Feature", "properties": { "OBJECTID": 117, "Plant_Number": "201605", "Plant_Name": "Prime Gelato Corp.", "Address": "200 RED RIVER ROAD", "City": "Thunder Bay", "Province": "ON", "PostalCode": "P7B 1A4", "Telephone": "(807) 344-1185", "Latitude_DD": 48.435004, "Longitude_DD": -89.219467, "License_Status": "Active" }, "geometry": { "type": "Point", "coordinates": [ -89.219474058750293, 48.435012765849699 ] } },
{ "type": "Feature", "properties": { "OBJECTID": 118, "Plant_Number": "201606", "Plant_Name": "Ferrante Cheese", "Address": "23-5732 HIGHWAY 7", "City": "Woodbridge", "Province": "ON", "PostalCode": "L4L 3A2", "Telephone": "(905) 851-2073", "Latitude_DD": 43.777155, "Longitude_DD": -79.613127, "License_Status": "Active" }, "geometry": { "type": "Point", "coordinates": [ -79.613130468261801, 43.777163596069897 ] } },
{ "type": "Feature", "properties": { "OBJECTID": 119, "Plant_Number": "201702", "Plant_Name": "Four All Ice Cream", "Address": "141 WHITNEY PLACE, UNIT 105", "City": "Kitchener", "Province": "ON", "PostalCode": "N2G 2X8", "Telephone": "(519) 635-0490", "Latitude_DD": 43.441315, "Longitude_DD": -80.488575, "License_Status": "Active" }, "geometry": { "type": "Point", "coordinates": [ -80.488578716088199, 43.441323495849701 ] } },
{ "type": "Feature", "properties": { "OBJECTID": 120, "Plant_Number": "201705", "Plant_Name": "Gelato Lab", "Address": "1070 ST. CLAIR AVE. W.", "City": "Toronto", "Province": "ON", "PostalCode": "M6E 1A5", "Telephone": "(647) 330-0838", "Latitude_DD": 43.679014, "Longitude_DD": -79.439386, "License_Status": "Active" }, "geometry": { "type": "Point", "coordinates": [ -79.439389404142801, 43.679022586996098 ] } },
{ "type": "Feature", "properties": { "OBJECTID": 121, "Plant_Number": "201804", "Plant_Name": "Nickel City Cheese", "Address": "3888 REGIONAL ROAD 15", "City": "Chelmsford", "Province": "ON", "PostalCode": "P0M 1L0", "Telephone": "(705) 969-1643", "Latitude_DD": 46.5950493, "Longitude_DD": -81.12523706, "License_Status": "Active" }, "geometry": { "type": "Point", "coordinates": [ -81.125241296626001, 46.595058290360001 ] } },
{ "type": "Feature", "properties": { "OBJECTID": 122, "Plant_Number": "201805", "Plant_Name": "Millbank Cheese and Butter", "Address": "72 CHURCH STREET", "City": "Millbank", "Province": "ON", "PostalCode": "N0K 1L0", "Telephone": "(519) 595-8787", "Latitude_DD": 43.57012225, "Longitude_DD": -80.83632616, "License_Status": "Active" }, "geometry": { "type": "Point", "coordinates": [ -80.836329997650594, 43.570130751604999 ] } },
{ "type": "Feature", "properties": { "OBJECTID": 123, "Plant_Number": "201807", "Plant_Name": "St. Clements Goat Dairy", "Address": "3230 LOBSINGER LINE", "City": "St. Clements", "Province": "ON", "PostalCode": "N0B 2M0", "Telephone": "(519) 699-0698", "Latitude_DD": 43.52124358, "Longitude_DD": -80.63613565, "License_Status": "Active" }, "geometry": { "type": "Point", "coordinates": [ -80.636139419954702, 43.521252082755304 ] } },
{ "type": "Feature", "properties": { "OBJECTID": 124, "Plant_Number": "201808", "Plant_Name": "Il Gelato Di Carlotta Inc.", "Address": "570-380 VANSICKLE ROAD", "City": "St. Catharines", "Province": "ON", "PostalCode": "L2S 0B5", "Telephone": "(905) 984-8999", "Latitude_DD": 43.14852156, "Longitude_DD": -79.26826118, "License_Status": "Active" }, "geometry": { "type": "Point", "coordinates": [ -79.268264483739202, 43.148530061047602 ] } },
{ "type": "Feature", "properties": { "OBJECTID": 125, "Plant_Number": "201810", "Plant_Name": "Guelph Food Innovation Center", "Address": "88 MCGILVRAY STREET", "City": "Guelph", "Province": "ON", "PostalCode": "N1G 2W1", "Telephone": "(519) 824-4120", "Latitude_DD": 43.52970674, "Longitude_DD": -80.23072193, "License_Status": "Active" }, "geometry": { "type": "Point", "coordinates": [ -80.230725572431396, 43.529715263628802 ] } },
{ "type": "Feature", "properties": { "OBJECTID": 126, "Plant_Number": "201906", "Plant_Name": "Death in Venice Gelato", "Address": "1418 DUNDAS STREET WEST", "City": "Toronto", "Province": "ON", "PostalCode": "M6J 1Y5", "Telephone": "(416) 509-3044", "Latitude_DD": 43.6497772, "Longitude_DD": -79.42932312000001, "License_Status": "Active" }, "geometry": { "type": "Point", "coordinates": [ -79.429326518356902, 43.649785782332103 ] } },
{ "type": "Feature", "properties": { "OBJECTID": 127, "Plant_Number": "201916", "Plant_Name": "Sargent Family Dairy", "Address": "8734 OLD SCUGOG RD", "City": "Hampton", "Province": "ON", "PostalCode": "L0B 1J0", "Telephone": "(905) 259-2245", "Latitude_DD": 44.02928757, "Longitude_DD": -78.77744785, "License_Status": "Active" }, "geometry": { "type": "Point", "coordinates": [ -78.777451073106306, 44.029296248835301 ] } },
{ "type": "Feature", "properties": { "OBJECTID": 128, "Plant_Number": "202002", "Plant_Name": "Udder Way Artisan Cheese Co.", "Address": "410 HIGHWAY 20", "City": "Hannon", "Province": "ON", "PostalCode": "L0R 1P0", "Telephone": "(905) 920-2633", "Latitude_DD": 43.14823, "Longitude_DD": -79.75, "License_Status": "Active" }, "geometry": { "type": "Point", "coordinates": [ -79.750003456543098, 43.148238478875797 ] } },
{ "type": "Feature", "properties": { "OBJECTID": 129, "Plant_Number": "202003", "Plant_Name": "Mediterranean Dairy Inc.", "Address": "100 RUTHERFORD ROAD SOUTH", "City": "Brampton", "Province": "ON", "PostalCode": "L6W 3J5", "Telephone": "(416) 716-9488", "Latitude_DD": 43.69709555, "Longitude_DD": -79.73458086, "License_Status": "Active" }, "geometry": { "type": "Point", "coordinates": [ -79.734584359817902, 43.697104126373603 ] } },
{ "type": "Feature", "properties": { "OBJECTID": 130, "Plant_Number": "202004", "Plant_Name": "Mistyglen Creamery", "Address": "47008 YORK LINE", "City": "Belmont", "Province": "ON", "PostalCode": "N0L 1B0", "Telephone": "(519) 872-1371", "Latitude_DD": 42.87531638, "Longitude_DD": -81.06487792, "License_Status": "Active" }, "geometry": { "type": "Point", "coordinates": [ -81.064881766862996, 42.875324748488701 ] } },
{ "type": "Feature", "properties": { "OBJECTID": 131, "Plant_Number": "202007", "Plant_Name": "Vosbrae Dairy", "Address": "140 SKYLINE RD", "City": "Oakwood", "Province": "ON", "PostalCode": "K0M 2MO", "Telephone": "(705) 328-5711", "Latitude_DD": 44.32326083, "Longitude_DD": -78.97800606, "License_Status": "Active" }, "geometry": { "type": "Point", "coordinates": [ -78.978009373814203, 44.323269550616601 ] } },
{ "type": "Feature", "properties": { "OBJECTID": 132, "Plant_Number": "202103", "Plant_Name": "Demetres Manufactory Ltd.", "Address": "111 STRADA DRIVE", "City": "Woodbridge", "Province": "ON", "PostalCode": "L4L 5V9", "Telephone": "(416) 357-8700", "Latitude_DD": 43.78053862, "Longitude_DD": -79.56764522, "License_Status": "Active" }, "geometry": { "type": "Point", "coordinates": [ -79.567648674057693, 43.780547218791398 ] } },
{ "type": "Feature", "properties": { "OBJECTID": 133, "Plant_Number": "202107", "Plant_Name": "1279464 Ontario Ltd.", "Address": "18 - 30 BAYWOOD ROAD", "City": "Etobicoke", "Province": "ON", "PostalCode": "M9V 3Y8", "Telephone": "(416) 274-6461", "Latitude_DD": 43.74567053, "Longitude_DD": -79.60673816000001, "License_Status": "Active" }, "geometry": { "type": "Point", "coordinates": [ -79.606741623416994, 43.745679120865397 ] } },
{ "type": "Feature", "properties": { "OBJECTID": 134, "Plant_Number": "202108", "Plant_Name": "Walker Processing", "Address": "9608 CARTER RD", "City": "Aylmer", "Province": "ON", "PostalCode": "N5H 2R1", "Telephone": "(519) 765-3132", "Latitude_DD": 42.77661098, "Longitude_DD": -80.8773576, "License_Status": "Active" }, "geometry": { "type": "Point", "coordinates": [ -80.877361379420293, 42.776619339901899 ] } },
{ "type": "Feature", "properties": { "OBJECTID": 135, "Plant_Number": "202110", "Plant_Name": "Expressridge Dairy", "Address": "790 KING ST N", "City": "St. Jacobs", "Province": "ON", "PostalCode": "N0B 2NO", "Telephone": "(519) 746-4274", "Latitude_DD": 43.51793343, "Longitude_DD": -80.54701381, "License_Status": "Active" }, "geometry": { "type": "Point", "coordinates": [ -80.547017551484004, 43.517941936461298 ] } },
{ "type": "Feature", "properties": { "OBJECTID": 136, "Plant_Number": "202204", "Plant_Name": "Pine River Food Products Inc.", "Address": "635 ON-21", "City": "Ripley", "Province": "ON", "PostalCode": "N0G 2R0", "Telephone": "(416) 456-1614", "Latitude_DD": 44.09276456, "Longitude_DD": -81.67963628, "License_Status": "Active" }, "geometry": { "type": "Point", "coordinates": [ -81.679640433178307, 44.092773109882302 ] } },
{ "type": "Feature", "properties": { "OBJECTID": 137, "Plant_Number": "202206", "Plant_Name": "Mapletons Organic", "Address": "8548 COUNTY ROAD 7", "City": "Moorefield", "Province": "ON", "PostalCode": "N0G 2K0", "Telephone": "(519) 589-7310", "Latitude_DD": 43.82332619, "Longitude_DD": -80.73810785000001, "License_Status": "Active" }, "geometry": { "type": "Point", "coordinates": [ -80.738111679977806, 43.823334740337103 ] } },
{ "type": "Feature", "properties": { "OBJECTID": 138, "Plant_Number": "275501", "Plant_Name": "Farquhar Dairies Limited", "Address": "242 CENTRE STREET", "City": "Espanola", "Province": "ON", "PostalCode": "P5E 1G2", "Telephone": "(705) 869-2122", "Latitude_DD": 46.26122, "Longitude_DD": -81.76518, "License_Status": "Active" }, "geometry": { "type": "Point", "coordinates": [ -81.765184406562497, 46.261228903139099 ] } },
{ "type": "Feature", "properties": { "OBJECTID": 139, "Plant_Number": "285201", "Plant_Name": "Forfar Dairy Limited", "Address": "1536 COUNTY ROAD 42", "City": "Portland", "Province": "ON", "PostalCode": "K0G 1V0", "Telephone": "(613) 777-3444", "Latitude_DD": 44.660897, "Longitude_DD": -76.217559, "License_Status": "Active" }, "geometry": { "type": "Point", "coordinates": [ -76.217561445855907, 44.660905901815703 ] } },
{ "type": "Feature", "properties": { "OBJECTID": 140, "Plant_Number": "442102", "Plant_Name": "Local Dairy Products", "Address": "139 VICTORIA STREET", "City": "Ingersoll", "Province": "ON", "PostalCode": "N5C 2M8", "Telephone": "(519) 485-4242", "Latitude_DD": 43.03954, "Longitude_DD": -80.89153, "License_Status": "Active" }, "geometry": { "type": "Point", "coordinates": [ -80.891533807075902, 43.039548405859698 ] } },
{ "type": "Feature", "properties": { "OBJECTID": 141, "Plant_Number": "600907", "Plant_Name": "Lactalis Canada (Thunder Bay)", "Address": "134 SOUTH WATERLOO STREET", "City": "Thunder Bay", "Province": "ON", "PostalCode": "P7E 2C3", "Telephone": "(807) 623-8233", "Latitude_DD": 48.382718, "Longitude_DD": -89.263515, "License_Status": "Active" }, "geometry": { "type": "Point", "coordinates": [ -89.263522064159901, 48.382726755600501 ] } },
{ "type": "Feature", "properties": { "OBJECTID": 142, "Plant_Number": "610601", "Plant_Name": "Paron Cheese Company Limited", "Address": "400 REGIONAL ROAD 20 E.", "City": "Hannon", "Province": "ON", "PostalCode": "L0R 1P0", "Telephone": "(905) 692-4560", "Latitude_DD": 43.163797, "Longitude_DD": -79.74251, "License_Status": "Active" }, "geometry": { "type": "Point", "coordinates": [ -79.742513455514896, 43.1638054819879 ] } }
]
}
